{
  "title": "Rome",
  "title_inspiration": "A 4 day trip to Rome",
  "duration_days": 4,
  "destination": "Rome",
  "description": "",
  "budget": {
    "currency": "USD",
    "amount": 4000
  },
  "expenses": [
    { "description": "Flights", "category": "transport", "amount": 1110 },
    { "description": "Lodging", "category": "lodging", "amount": 666 },
    { "description": "Local transport", "category": "transport", "amount": 44 },
    { "description": "Airport transfers", "category": "transport", "amount": 133 },
    { "description": "Coffee and breakfasts", "category": "food", "amount": 88 },
    { "description": "Meals", "category": "food", "amount": 754 }
  ],
  "itinerary": [
    {
      "day": 1,
      "activities": [
        {
          "title": "Rome City Walking Tour",
          "startTime": "08:00",
          "duration": 3,
          "address": "Piazza del Colosseo, 1, 00184 Roma RM, Italy",
          "color": "bg-[var(--color-3)]",
          "imageUrl": "/src/features/planner/modules/inspiration/media/rome/Rome City Walking Tour.jpg",
          "latitude": 41.8902,
          "longitude": 12.4922,
          "budget": 112
        },
        {
          "title": "Skip-the-Line Group Tour of the Vatican, Sistine Chapel & St. Peter's Basilica",
          "startTime": "11:30",
          "duration": 3,
          "address": "Cortile della Pigna, 00120 Vatican City",
          "color": "bg-[var(--color-3)]",
          "imageUrl": "/src/features/planner/modules/inspiration/media/rome/Tour of the Vatican, Sistine Chapel & St. Peter's Basilica.jpg",
          "latitude": 41.9065,
          "longitude": 12.4533,
          "budget": 134
        },
        {
          "title": "Dinner at Trattoria da Enzo al 29",
          "startTime": "18:00",
          "duration": 2,
          "address": "Via dei Vascellari, 29, 00153 Roma RM, Italy",
          "color": "bg-[var(--color-4)]",
          "imageUrl": "/src/features/planner/modules/inspiration/media/rome/Trattoria da Enzo al 29.jpg",
          "latitude": 41.8896,
          "longitude": 12.4744,
          "budget": 66
        }
      ]
    },
    {
      "day": 2,
      "activities": [
        {
          "title": "Explore the Roman Forum",
          "startTime": "09:00",
          "duration": 2,
          "address": "Via della Salara Vecchia, 5/6, 00186 Roma RM, Italy",
          "color": "bg-[var(--color-3)]",
          "imageUrl": "/src/features/planner/modules/inspiration/media/rome/Roman Forum.jpg",
          "latitude": 41.8925,
          "longitude": 12.4853
        },
        {
          "title": "Lunch at Ristorante Aroma",
          "startTime": "12:00",
          "duration": 1,
          "address": "Via Labicana, 125, 00184 Roma RM, Italy",
          "color": "bg-[var(--color-4)]",
          "imageUrl": "/src/features/planner/modules/inspiration/media/rome/Ristorante Aroma.jpg",
          "latitude": 41.8911,
          "longitude": 12.4954,
          "budget": 278
        },
        {
          "title": "Colosseum, Roman Forum & Palatine Hill Guided Tour",
          "startTime": "14:00",
          "duration": 3,
          "address": "Piazza del Colosseo, 1, 00184 Roma RM, Italy",
          "color": "bg-[var(--color-3)]",
          "imageUrl": "/src/features/planner/modules/inspiration/media/rome/Rome City Walking Tour.jpg",
          "latitude": 41.8902,
          "longitude": 12.4922,
          "budget": 86
        },
        {
          "title": "Dinner at Spaghetteria L'Archeologia",
          "startTime": "18:00",
          "duration": 2,
          "address": "Via delle Coppelle, 16/17, 00186 Roma RM, Italy",
          "color": "bg-[var(--color-4)]",
          "imageUrl": "/src/features/planner/modules/inspiration/media/rome/Spaghetteria L'Archeologia.jpg",
          "latitude": 41.9002,
          "longitude": 12.4769,
          "budget": 134
        }
      ]
    },
    {
      "day": 3,
      "activities": [
        {
          "title": "Visit the Pantheon",
          "startTime": "09:00",
          "duration": 1.5,
          "address": "Piazza della Rotonda, 00186 Roma RM, Italy",
          "color": "bg-[var(--color-3)]",
          "imageUrl": "/src/features/planner/modules/inspiration/media/rome/Pantheon.jpg",
          "latitude": 41.8986,
          "longitude": 12.4769,
          "budget": 12
        },
        {
          "title": "Explore Piazza Navona",
          "startTime": "11:00",
          "duration": 1.5,
          "address": "Piazza Navona, 00186 Roma RM, Italy",
          "color": "bg-[var(--color-3)]",
          "imageUrl": "/src/features/planner/modules/inspiration/media/rome/Piazza Navona.jpg",
          "latitude": 41.8992,
          "longitude": 12.4731
        },
        {
          "title": "Lunch at Ristorante Tre Scalini",
          "startTime": "12:30",
          "duration": 1,
          "address": "Piazza Navona, 28, 00186 Roma RM, Italy",
          "color": "bg-[var(--color-4)]",
          "imageUrl": "/src/features/planner/modules/inspiration/media/rome/Ristorante Tre Scalini.jpg",
          "latitude": 41.8993,
          "longitude": 12.4733,
          "budget": 66
        },
        {
          "title": "Visit the Trevi Fountain",
          "startTime": "14:00",
          "duration": 1,
          "address": "Piazza di Trevi, 00187 Roma RM, Italy",
          "color": "bg-[var(--color-3)]",
          "imageUrl": "/src/features/planner/modules/inspiration/media/rome/Trevi Fountain.jpg",
          "latitude": 41.9009,
          "longitude": 12.4833
        },
        {
          "title": "Shopping on Via del Corso",
          "startTime": "16:00",
          "duration": 2,
          "address": "Via del Corso, 00186 Roma RM, Italy",
          "color": "bg-[var(--color-3)]",
          "imageUrl": "/src/features/planner/modules/inspiration/media/rome/Via del Corso.jpg",
          "latitude": 41.9022,
          "longitude": 12.4797
        },
        {
          "title": "Dinner at Hostaria Romana",
          "startTime": "19:00",
          "duration": 2,
          "address": "Via del Boschetto, 73, 00184 Roma RM, Italy",
          "color": "bg-[var(--color-4)]",
          "imageUrl": "/src/features/planner/modules/inspiration/media/rome/Hostaria Romana.jpg",
          "latitude": 41.8972,
          "longitude": 12.4889,
          "budget": 78
        }
      ]
    },
    {
      "day": 4,
      "activities": [
        {
          "title": "Visit Villa Borghese Gardens",
          "startTime": "09:00",
          "duration": 2,
          "address": "Piazzale Napoleone I, 00197 Roma RM, Italy",
          "color": "bg-[var(--color-3)]",
          "imageUrl": "/src/features/planner/modules/inspiration/media/rome/Villa Borghese Gardens.jpg",
          "latitude": 41.9142,
          "longitude": 12.486
        },
        {
          "title": "Explore the Spanish Steps",
          "startTime": "11:30",
          "duration": 1,
          "address": "Piazza di Spagna, 00187 Roma RM, Italy",
          "color": "bg-[var(--color-3)]",
          "imageUrl": "/src/features/planner/modules/inspiration/media/rome/Spanish Steps.jpg",
          "latitude": 41.9058,
          "longitude": 12.4824
        },
        {
          "title": "Lunch at Caffè Greco",
          "startTime": "13:00",
          "duration": 1.5,
          "address": "Via dei Condotti, 86, 00187 Roma RM, Italy",
          "color": "bg-[var(--color-4)]",
          "imageUrl": "/src/features/planner/modules/inspiration/media/rome/Caffè Greco.jpg",
          "latitude": 41.9052,
          "longitude": 12.482,
          "budget": 44
        },
        {
          "title": "Tour of the Borghese Gallery",
          "startTime": "15:00",
          "duration": 2,
          "address": "Piazzale Scipione Borghese, 5, 00197 Roma RM, Italy",
          "color": "bg-[var(--color-3)]",
          "imageUrl": "/src/features/planner/modules/inspiration/media/rome/Borghese Gallery.jpg",
          "latitude": 41.9145,
          "longitude": 12.4922,
          "budget": 34
        },
        {
          "title": "Farewell Dinner at Osteria Antica",
          "startTime": "19:00",
          "duration": 2,
          "address": "Via Garibaldi, 5, 00184 Roma RM, Italy",
          "color": "bg-[var(--color-4)]",
          "imageUrl": "/src/features/planner/modules/inspiration/media/rome/Osteria Antica.jpg",
          "latitude": 41.8881,
          "longitude": 12.4669,
          "budget": 88
        }
      ]
    }
  ]
}
